{
"type": "FeatureCollection",
"name": "bus_routes_992_Saturday",
"crs": { "type": "name", "properties": { "name": "urn:ogc:def:crs:OGC:1.3:CRS84" } },
"features": [
{ "type": "Feature", "properties": { "OperatingDayDate": "2026-03-07", "Weekday": 6.0, "LineDesignation": "992", "ContractorCode": "AR", "LineDirectionName": "Teglholmen - Orientkaj St.", "StopPointName": "Teglholmen", "Seq": "P1" }, "geometry": { "type": "Point", "coordinates": [ 12.551330059623, 55.647934133115001 ] } },
{ "type": "Feature", "properties": { "OperatingDayDate": "2026-03-07", "Weekday": 6.0, "LineDesignation": "992", "ContractorCode": "AR", "LineDirectionName": "Teglholmen - Orientkaj St.", "StopPointName": "Enghave Brygge", "Seq": "P2" }, "geometry": { "type": "Point", "coordinates": [ 12.560692539156999, 55.655050861385 ] } },
{ "type": "Feature", "properties": { "OperatingDayDate": "2026-03-07", "Weekday": 6.0, "LineDesignation": "992", "ContractorCode": "AR", "LineDirectionName": "Teglholmen - Orientkaj St.", "StopPointName": "Islands Brygge Syd", "Seq": "P3" }, "geometry": { "type": "Point", "coordinates": [ 12.564137105068999, 55.655966556471 ] } },
{ "type": "Feature", "properties": { "OperatingDayDate": "2026-03-07", "Weekday": 6.0, "LineDesignation": "992", "ContractorCode": "AR", "LineDirectionName": "Teglholmen - Orientkaj St.", "StopPointName": "Bryggebroen", "Seq": "P4" }, "geometry": { "type": "Point", "coordinates": [ 12.568892090625001, 55.661959802985997 ] } },
{ "type": "Feature", "properties": { "OperatingDayDate": "2026-03-07", "Weekday": 6.0, "LineDesignation": "992", "ContractorCode": "AR", "LineDirectionName": "Teglholmen - Orientkaj St.", "StopPointName": "Det Kongelige Bibliotek", "Seq": "P5" }, "geometry": { "type": "Point", "coordinates": [ 12.580645938889999, 55.672212661282003 ] } },
{ "type": "Feature", "properties": { "OperatingDayDate": "2026-03-07", "Weekday": 6.0, "LineDesignation": "992", "ContractorCode": "AR", "LineDirectionName": "Teglholmen - Orientkaj St.", "StopPointName": "Knippelsbro", "Seq": "P6" }, "geometry": { "type": "Point", "coordinates": [ 12.587052764758001, 55.674226281231 ] } },
{ "type": "Feature", "properties": { "OperatingDayDate": "2026-03-07", "Weekday": 6.0, "LineDesignation": "992", "ContractorCode": "AR", "LineDirectionName": "Teglholmen - Orientkaj St.", "StopPointName": "Nyhavn", "Seq": "P7" }, "geometry": { "type": "Point", "coordinates": [ 12.594294038618999, 55.679139804228001 ] } },
{ "type": "Feature", "properties": { "OperatingDayDate": "2026-03-07", "Weekday": 6.0, "LineDesignation": "992", "ContractorCode": "AR", "LineDirectionName": "Teglholmen - Orientkaj St.", "StopPointName": "Operaen", "Seq": "P8" }, "geometry": { "type": "Point", "coordinates": [ 12.598970071750999, 55.681745149998001 ] } },
{ "type": "Feature", "properties": { "OperatingDayDate": "2026-03-07", "Weekday": 6.0, "LineDesignation": "992", "ContractorCode": "AR", "LineDirectionName": "Teglholmen - Orientkaj St.", "StopPointName": "Nordre Toldbod", "Seq": "P9" }, "geometry": { "type": "Point", "coordinates": [ 12.599565893943, 55.688193295806002 ] } },
{ "type": "Feature", "properties": { "OperatingDayDate": "2026-03-07", "Weekday": 6.0, "LineDesignation": "992", "ContractorCode": "AR", "LineDirectionName": "Teglholmen - Orientkaj St.", "StopPointName": "Refshaleøen", "Seq": "P10" }, "geometry": { "type": "Point", "coordinates": [ 12.606772243625, 55.691105216575998 ] } },
{ "type": "Feature", "properties": { "OperatingDayDate": "2026-03-07", "Weekday": 6.0, "LineDesignation": "992", "ContractorCode": "AR", "LineDirectionName": "Teglholmen - Orientkaj St.", "StopPointName": "Orientkaj St.", "Seq": "P11" }, "geometry": { "type": "Point", "coordinates": [ 12.596023508005, 55.711724050907002 ] } }
]
}
